[
  {
    "city": "Auckland",
    "coordinates": [
      174.76,
      -36.85
    ]
  },
  {
    "city": "Whagarei",
    "coordinates": [
      174.31,
      -35.72
    ]
  },
  {
    "city": "Pukekohe",
    "coordinates": [
      174.95,
      -37.19
    ]
  },
  {
    "city": "Hamilton",
    "coordinates": [
      175.28,
      -37.78
    ]
  },
  {
    "city": "Tauranga",
    "coordinates": [
      176.15,
      -37.7
    ]
  },
  {
    "city": "Wellington",
    "coordinates": [
      174.78,
      -41.28
    ]
  }
]