[{"city":"Invercargill","coordinates":[168.3760028,-46.4311338]},{"city":"Dunedin","coordinates":[170.5271188,-45.8726937]},{"city":"Oamaru","coordinates":[170.9583556,-45.0735464]},{"city":"Timaru","coordinates":[171.2236344,-44.3788895]},{"city":"Christchurch","coordinates":[172.5990772,-43.5131367]},{"city":"Blenheim","coordinates":[173.932808,-41.5290858]},{"city":"Nelson","coordinates":[173.266094,-41.2849672]},{"city":"Wellington","coordinates":[174.7756146,-41.2845261]},{"city":"Masterton","coordinates":[175.6535035,-40.9505223]},{"city":"Palmerston North","coordinates":[175.6300296,-40.3532495]},{"city":"Whanganui","coordinates":[175.0480344,-39.925916]},{"city":"Hastings","coordinates":[176.8193986,-39.6367296]},{"city":"Napier","coordinates":[176.8683799,-39.4793247]},{"city":"New Plymouth","coordinates":[174.0961253,-39.0525142]},{"city":"Taupo","coordinates":[176.044764,-38.6898287]},{"city":"Gisborne","coordinates":[178.0263304,-38.6663604]},{"city":"Rotorua","coordinates":[176.3044929,-38.1612749]},{"city":"Te Awamutu","coordinates":[175.3103239,-37.9942486]},{"city":"Hamilton","coordinates":[175.2649238,-37.7751415]},{"city":"Tauranga","coordinates":[176.1586309,-37.7039674]},{"city":"Pukekohe","coordinates":[174.8932376,-37.2091063]},{"city":"Auckland","coordinates":[174.8654693,-36.863023]},{"city":"Whagarei","coordinates":[174.2877818,-35.7118146]}]